access_mode:
- open
api: true
api_status: active
catalog_type: Geoportal
content_types:
- dataset
- map_layer
coverage:
- location:
    country:
      id: US
      name: United States
    level: 20
    macroregion:
      id: '021'
      name: Northern America
description: "University of Edinburgh &amp; MapAction: Volcanic Hazard Mapping Project\
  \ Presenting volcanic hazard maps to be useful, usable, and used Generating hazard\
  \ maps for potentially active volcanoes is recognized as a fundamental step towards\
  \ mitigation of risk to vulnerable communities. Hazard maps are communication tools,\
  \ and although they are simplified, their content embodies a wealth of information\
  \ about a given volcano. However, hazard maps are most commonly presented as large\
  \ format paper maps, and/or available digitally to download. These methods to communicate,\
  \ and distribute this knowledge are now a limiting factor in their usefulness. In\
  \ June 2018 we collaborated with the charity MapAction to generate the first ever\
  \ 3D interactive web map for hazards at a volcano. We trailed this approach with\
  \ Fuego volcano in Guatemala after an eruption. The web map was visited over 26,000\
  \ times in two months. It was used by emergency managers, local government, NGOS\
  \ and the public. Volcanic hazard information in this format is democratised, and\
  \ the usage of the map was simply unprecedented. In this project we want to combine\
  \ our NERC project – which hinges on improving simulation tools used in making hazard\
  \ maps, and our collaborations with MapAction, to develop on our experience with\
  \ the Fuego map to generate a suite of new 3D interactive web maps for 18 volcanoes\
  \ around the world. Locations Volcanic Hazard Mapping Locations volcanic-hazard-mapping-locations\
  \ Progress to Date Volcanoes Chile Servicio Nacional de Geología y Minería (SERNAGEOMIN)\
  \ Calbuco Chaitén Llaima Nevados de Chillán Villarrica Latitude: 41.33°S\n     \
  \   Longitude: 72.618°W\n        Summit Elevation: 1974m Latitude: 42.833°S\n  \
  \      Longitude: 72.646°W\n        Summit Elevation: 1122m Latitude: 38.692°S\n\
  \        Longitude: 71.729°W\n        Summit Elevation: 3125m Latitude: 36.868°S\n\
  \        Longitude: 71.378°W\n        Summit Elevation: 3180m Latitude: 39.42°S\n\
  \        Longitude: 71.93°W\n        Summit Elevation: 2847m Colombia Servicio Geológico\
  \ Colombiano (SGC) Chiles-Cerro Negro Galeras Cerro Machín Nevado del Ruiz Puracé\
  \ Latitude: 0.817°N\n        Longitude: 77.938°W\n        Summit Elevation: 4698m\
  \ Latitude: 1.22°N\n        Longitude: 77.37°W\n        Summit Elevation: 4276m\
  \ Latitude: 4.487°N\n        Longitude: 75.389°W\n        Summit Elevation: 2749m\
  \ Latitude: 4.892°N\n        Longitude: 75.324°W\n        Summit Elevation: 5279m\
  \ Latitude: 2.32°N\n        Longitude: 76.4°W\n        Summit Elevation: 4650m Dominica\
  \ Seismic Research Centre of the University of West Indies Morne Trois Pitons Latitude:\
  \ 15.37°N\n        Longitude: 61.33°W\n        Summit Elevation: 1387m Ecuador Instituto\
  \ Geofísico Escuela Politécnica Nacional (IGEPN) Cotopaxi Reventador Tungurahua\
  \ Latitude: 0.677°S\n        Longitude: 78.436°W\n        Summit Elevation: 5911m\
  \ Latitude: 0.077°S\n        Longitude: 77.656°W\n        Summit Elevation: 3562m\
  \ Latitude: 1.467°S\n        Longitude: 78.442°W\n        Summit Elevation: 5023m\
  \ Greece Institute of Geology &amp; Mineral Exploration (I.G.M.E) Santorini Latitude:\
  \ 36.404°N\n        Longitude: 25.396°E\n        Summit Elevation: 367m Guatemala\
  \ Instituto Nacional de Sismología, Vulcanología, Meteorología e Hidrología (INSIVUMEH)\
  \ Fuego Latitude: 14.473°N\n        Longitude: 90.88°W\n        Summit Elevation:\
  \ 3763m Saint Kitts and Nevis Seismic Research Centre of the University of West\
  \ Indies Liamuiga Latitude: 17.37°N\n        Longitude: 62.8°W\n        Summit Elevation:\
  \ 1156m Saint Vincent Seismic Research Centre of the University of West Indies Soufrière\
  \ St. Vincent Soufrière St. Vincent Soufrière St. Vincent Latitude: 13.33°N\n  \
  \      Longitude: 61.18°W\n        Summit Elevation: 1220m Latitude: 13.33°N\n \
  \       Longitude: 61.18°W\n        Summit Elevation: 1220m\n        St. Vincent\
  \ Emergency Response 2021 UNDERGOING MAINTENANCEUsing bookmarks as shortcuts to\
  \ specific viewsCreated by Catherine WoodEdinburgh University Please Provide Feedback:\
  \ Please Provide Feedback Contact Information support@esri.com Copyright 2019. MapAction.\
  \ About Contact Us"
endpoints:
- type: dcatap201
  url: https://volcanichazard-mapaction.opendata.arcgis.com/api/feed/dcat-ap/2.0.1.json
- type: dcatus11
  url: https://volcanichazard-mapaction.opendata.arcgis.com/api/feed/dcat-us/1.1.json
- type: rss
  url: https://volcanichazard-mapaction.opendata.arcgis.com/api/feed/rss/2.0
- type: ogcrecordsapi
  url: https://volcanichazard-mapaction.opendata.arcgis.com/api/search/v1
- type: sitemap
  url: https://volcanichazard-mapaction.opendata.arcgis.com/sitemap.xml
id: volcanichazardmapactionopendataarcgiscom
langs:
- id: EN
  name: English
link: https://volcanichazard-mapaction.opendata.arcgis.com/
name: Volcanic Hazard Mapping Project
owner:
  link: https://volcanichazard-mapaction.opendata.arcgis.com/
  location:
    country:
      id: US
      name: United States
    level: 20
  name: MapAction
  type: International
properties:
  has_doi: false
rights:
  license_id: null
  license_name: null
  license_url: null
  privacy_policy_url: https://www.esri.com/en-us/privacy/overview
  rights_type: granular
  tos_url: https://www.esri.com/en-us/legal/terms/full-master-agreement
software:
  id: arcgishub
  name: ArcGIS Hub
status: active
tags:
- volcano
- hazard
- GIS
topics:
- id: ENVI
  name: Environment
  type: eudatatheme
- id: Geoscientific Information
  name: Geoscientific Information
  type: iso19115
- id: Environment
  name: Environment
  type: iso19115
uid: cdi00004064
